{ "page":"1"
  ,"total":"101"
  ,"data": [
	{ "Address" : "324 W El Camino Real",
    "BusinessClickUrl" : "http://www.chipotle.com/",
    "BusinessUrl" : "http://www.chipotle.com/",
    "City" : "Sunnyvale",
    "ClickUrl" : "http://local.yahoo.com/info-21329193-chipotle-mexican-grill-sunnyvale",
    "Distance" : "2.79",
    "Latitude" : "37.368659",
    "Longitude" : "-122.035851",
    "MapUrl" : "http://maps.yahoo.com/maps_result?q1=324+W+El+Camino+Real+Sunnyvale+CA&gid1=21329193",
    "Phone" : "(555) 773-1304",
    "Rating" : { "AverageRating" : "4.5",
        "LastReviewDate" : "1260914047",
        "TotalRatings" : "26",
        "TotalReviews" : "14"
      },
    "State" : "CA",
    "Title" : "Chipotle Mexican Grill",
    "Url" : "http://local.yahoo.com/info-21329193-chipotle-mexican-grill-sunnyvale"
  },
  { "Address" : "671 S Bernardo Ave",
    "City" : "Sunnyvale",
    "ClickUrl" : "http://local.yahoo.com/info-21338039-casa-lupe-restaurant-sunnyvale",
    "Distance" : "3.36",
    "Latitude" : "37.372772",
    "Longitude" : "-122.05683",
    "MapUrl" : "http://maps.yahoo.com/maps_result?q1=671+S+Bernardo+Ave+Sunnyvale+CA&gid1=21338039",
    "Phone" : "(555) 739-2900",
    "Rating" : { "AverageRating" : "4.5",
        "LastReviewDate" : "1275869016",
        "TotalRatings" : "26",
        "TotalReviews" : "20"
      },
    "State" : "CA",
    "Title" : "Casa Lupe Restaurant",
    "Url" : "http://local.yahoo.com/info-21338039-casa-lupe-restaurant-sunnyvale"
  },
  { "Address" : "670 N Fair Oaks Ave",
    "BusinessClickUrl" : "http://www.taqueria3potrillos.com/",
    "BusinessUrl" : "http://www.taqueria3potrillos.com/",
    "City" : "Sunnyvale",
    "ClickUrl" : "http://local.yahoo.com/info-26205849-tres-potrillos-taqueria-sunnyvale",
    "Distance" : "0.92",
    "Latitude" : "37.390253",
    "Longitude" : "-122.014435",
    "MapUrl" : "http://maps.yahoo.com/maps_result?q1=670+N+Fair+Oaks+Ave+Sunnyvale+CA&gid1=26205849",
    "Phone" : "(555) 735-8657",
    "Rating" : { "AverageRating" : "4.5",
        "LastReviewDate" : "1275507585",
        "TotalRatings" : "11",
        "TotalReviews" : "8"
      },
    "State" : "CA",
    "Title" : "Tres Potrillos Taqueria",
    "Url" : "http://local.yahoo.com/info-26205849-tres-potrillos-taqueria-sunnyvale"
  },
  { "Address" : "144 W El Camino Real",
    "BusinessClickUrl" : "http://www.bajafresh.com/",
    "BusinessUrl" : "http://www.bajafresh.com/",
    "City" : "Sunnyvale",
    "ClickUrl" : "http://local.yahoo.com/info-28452234-baja-fresh-mexican-grill-sunnyvale",
    "Distance" : "2.75",
    "Latitude" : "37.368098",
    "Longitude" : "-122.033544",
    "MapUrl" : "http://maps.yahoo.com/maps_result?q1=144+W+El+Camino+Real+Sunnyvale+CA&gid1=28452234",
    "Phone" : "(555) 773-8466",
    "Rating" : { "AverageRating" : "4",
        "LastReviewDate" : "1165268992",
        "TotalRatings" : "5",
        "TotalReviews" : "3"
      },
    "State" : "CA",
    "Title" : "Baja Fresh Mexican Grill",
    "Url" : "http://local.yahoo.com/info-28452234-baja-fresh-mexican-grill-sunnyvale"
  },
  { "Address" : "901 E Duane Ave",
    "City" : "Sunnyvale",
    "ClickUrl" : "http://local.yahoo.com/info-21332976-tia-juana-sunnyvale",
    "Distance" : "1.00",
    "Latitude" : "37.388513",
    "Longitude" : "-122.005097",
    "MapUrl" : "http://maps.yahoo.com/maps_result?q1=901+E+Duane+Ave+Sunnyvale+CA&gid1=21332976",
    "Phone" : "(555) 730-8578",
    "Rating" : { "AverageRating" : "4",
        "LastReviewDate" : "1258045167",
        "TotalRatings" : "22",
        "TotalReviews" : "19"
      },
    "State" : "CA",
    "Title" : "Tia Juana",
    "Url" : "http://local.yahoo.com/info-21332976-tia-juana-sunnyvale"
  },
  { "Address" : "415 N Mary Ave, #117",
    "City" : "Sunnyvale",
    "ClickUrl" : "http://local.yahoo.com/info-21337897-senor-jalapeno-sunnyvale",
    "Distance" : "1.99",
    "Latitude" : "37.390247",
    "Longitude" : "-122.041498",
    "MapUrl" : "http://maps.yahoo.com/maps_result?q1=415+N+Mary+Ave%2C+%23117+Sunnyvale+CA&gid1=21337897",
    "Phone" : "(555) 738-0100",
    "Rating" : { "AverageRating" : "4.5",
        "LastReviewDate" : "1249928641",
        "TotalRatings" : "7",
        "TotalReviews" : "6"
      },
    "State" : "CA",
    "Title" : "Senor Jalapeno",
    "Url" : "http://local.yahoo.com/info-21337897-senor-jalapeno-sunnyvale"
  },
  { "Address" : "100 S Murphy Ave, #4",
    "BusinessClickUrl" : "http://delmonterestaurant.com/",
    "BusinessUrl" : "http://delmonterestaurant.com/",
    "City" : "Sunnyvale",
    "ClickUrl" : "http://local.yahoo.com/info-21336969-del-monte-restaurant-sunnyvale",
    "Distance" : "2.10",
    "Latitude" : "37.377439",
    "Longitude" : "-122.029774",
    "MapUrl" : "http://maps.yahoo.com/maps_result?q1=100+S+Murphy+Ave%2C+%234+Sunnyvale+CA&gid1=21336969",
    "Phone" : "(555) 737-7678",
    "Rating" : { "AverageRating" : "4.5",
        "LastReviewDate" : "1156781423",
        "TotalRatings" : "8",
        "TotalReviews" : "5"
      },
    "State" : "CA",
    "Title" : "Del Monte Restaurant",
    "Url" : "http://local.yahoo.com/info-21336969-del-monte-restaurant-sunnyvale"
  },
  { "Address" : "154 W El Camino Real",
    "City" : "Sunnyvale",
    "ClickUrl" : "http://local.yahoo.com/info-21328170-tacos-jalapa-sunnyvale",
    "Distance" : "2.75",
    "Latitude" : "37.368142",
    "Longitude" : "-122.033614",
    "MapUrl" : "http://maps.yahoo.com/maps_result?q1=154+W+El+Camino+Real+Sunnyvale+CA&gid1=21328170",
    "Phone" : "(555) 738-5945",
    "Rating" : { "AverageRating" : "4.5",
        "LastReviewDate" : "1262220924",
        "TotalRatings" : "9",
        "TotalReviews" : "7"
      },
    "State" : "CA",
    "Title" : "Tacos Jalapa",
    "Url" : "http://local.yahoo.com/info-21328170-tacos-jalapa-sunnyvale"
  },
  { "Address" : "510 E El Camino Real",
    "BusinessClickUrl" : "http://www.elcaminito.homestead.com/",
    "BusinessUrl" : "http://www.elcaminito.homestead.com/",
    "City" : "Sunnyvale",
    "ClickUrl" : "http://local.yahoo.com/info-21337070-el-caminito-mexican-restaurant-sunnyvale",
    "Distance" : "2.91",
    "Latitude" : "37.363221",
    "Longitude" : "-122.027108",
    "MapUrl" : "http://maps.yahoo.com/maps_result?q1=510+E+El+Camino+Real+Sunnyvale+CA&gid1=21337070",
    "Phone" : "(555) 739-1191",
    "Rating" : { "AverageRating" : "4",
        "LastReviewDate" : "1223169526",
        "TotalRatings" : "9",
        "TotalReviews" : "7"
      },
    "State" : "CA",
    "Title" : "El Caminito Mexican Restaurant",
    "Url" : "http://local.yahoo.com/info-21337070-el-caminito-mexican-restaurant-sunnyvale"
  },
  { "Address" : "195 E Maude Ave",
    "City" : "Sunnyvale",
    "ClickUrl" : "http://local.yahoo.com/info-21328094-taqueria-latina-sunnyvale",
    "Distance" : "1.35",
    "Latitude" : "37.387919",
    "Longitude" : "-122.024908",
    "MapUrl" : "http://maps.yahoo.com/maps_result?q1=195+E+Maude+Ave+Sunnyvale+CA&gid1=21328094",
    "Phone" : "(555) 735-7151",
    "Rating" : { "AverageRating" : "4",
        "LastReviewDate" : "1205269469",
        "TotalRatings" : "8",
        "TotalReviews" : "6"
      },
    "State" : "CA",
    "Title" : "Taqueria Latina",
    "Url" : "http://local.yahoo.com/info-21328094-taqueria-latina-sunnyvale"
  }
]} 